rosbagTimestamp,header,seq,stamp,secs,nsecs,frame_id,orientation,x,y,z,w,orientation_covariance,angular_velocity,x,y,z,angular_velocity_covariance,linear_acceleration,x,y,z,linear_acceleration_covariance
1479513000001215406,,91877,,1479513000,878095,"""/imu""",,0.00010803860167319697,0.02157051136178089,0.9693931475083717,-0.24456421619301885,"[0.017453292519943295, 0.0, 0.0, 0.0, 0.017453292519943295, 0.0, 0.0, 0.0, 0.15707963267948966]",,0.0,0.0,0.0,"[-1.0, -1.0, -1.0, -1.0, -1.0, -1.0, -1.0, -1.0, -1.0]",,-0.11197755485773087,1.232783317565918,9.857982635498047,"[0.0004, 0.0, 0.0, 0.0, 0.0004, 0.0, 0.0, 0.0, 0.0004]"
1479513000001789586,,91878,,1479513000,1508951,"""/imu""",,9.380128007379555e-05,0.021528745749317145,0.9694012329565934,-0.24453578348204247,"[0.017453292519943295, 0.0, 0.0, 0.0, 0.017453292519943295, 0.0, 0.0, 0.0, 0.15707963267948966]",,0.0,0.0,0.0,"[-1.0, -1.0, -1.0, -1.0, -1.0, -1.0, -1.0, -1.0, -1.0]",,-0.05497501790523529,1.238828182220459,9.700584411621094,"[0.0004, 0.0, 0.0, 0.0, 0.0004, 0.0, 0.0, 0.0, 0.0004]"
1479513000006268894,,91879,,1479513000,5964994,"""/imu""",,8.497593713718124e-05,0.021465987534745098,0.9694087034818926,-0.2445117488473691,"[0.017453292519943295, 0.0, 0.0, 0.0, 0.017453292519943295, 0.0, 0.0, 0.0, 0.15707963267948966]",,0.0,0.0,0.0,"[-1.0, -1.0, -1.0, -1.0, -1.0, -1.0, -1.0, -1.0, -1.0]",,-0.021980615332722664,0.9742074608802795,9.498897552490234,"[0.0004, 0.0, 0.0, 0.0, 0.0004, 0.0, 0.0, 0.0, 0.0004]"
1479513000006797408,,91880,,1479513000,6496906,"""/imu""",,7.115113124812799e-05,0.021398499292566483,0.9694108862171,-0.24450903094088736,"[0.017453292519943295, 0.0, 0.0, 0.0, 0.017453292519943295, 0.0, 0.0, 0.0, 0.15707963267948966]",,0.0,0.0,0.0,"[-1.0, -1.0, -1.0, -1.0, -1.0, -1.0, -1.0, -1.0, -1.0]",,-0.17668883502483368,0.7602778077125549,9.465180397033691,"[0.0004, 0.0, 0.0, 0.0, 0.0004, 0.0, 0.0, 0.0, 0.0004]"
1479513000011418171,,91881,,1479513000,10932922,"""/imu""",,7.116293080557307e-05,0.021347457395295116,0.9694137375997031,-0.24450222471525426,"[0.017453292519943295, 0.0, 0.0, 0.0, 0.017453292519943295, 0.0, 0.0, 0.0, 0.15707963267948966]",,0.0,0.0,0.0,"[-1.0, -1.0, -1.0, -1.0, -1.0, -1.0, -1.0, -1.0, -1.0]",,-0.23984545469284058,0.5739321112632751,9.425215721130371,"[0.0004, 0.0, 0.0, 0.0, 0.0004, 0.0, 0.0, 0.0, 0.0004]"
1479513000012137178,,91882,,1479513000,11801004,"""/imu""",,6.614047571020479e-05,0.021307545351742813,0.9694190022598298,-0.2444847417264862,"[0.017453292519943295, 0.0, 0.0, 0.0, 0.017453292519943295, 0.0, 0.0, 0.0, 0.15707963267948966]",,0.0,0.0,0.0,"[-1.0, -1.0, -1.0, -1.0, -1.0, -1.0, -1.0, -1.0, -1.0]",,-0.2646295130252838,0.5711014270782471,9.272332191467285,"[0.0004, 0.0, 0.0, 0.0, 0.0004, 0.0, 0.0, 0.0, 0.0004]"
1479513000016376263,,91883,,1479513000,15916109,"""/imu""",,4.8046502323653424e-05,0.02128137834332725,0.9694213386837773,-0.24447778881502177,"[0.017453292519943295, 0.0, 0.0, 0.0, 0.017453292519943295, 0.0, 0.0, 0.0, 0.15707963267948966]",,0.0,0.0,0.0,"[-1.0, -1.0, -1.0, -1.0, -1.0, -1.0, -1.0, -1.0, -1.0]",,-0.2526627480983734,0.3825668692588806,9.125125885009766,"[0.0004, 0.0, 0.0, 0.0, 0.0004, 0.0, 0.0, 0.0, 0.0004]"
1479513000019193149,,91884,,1479513000,16638994,"""/imu""",,4.469319496675788e-05,0.021257035195395343,0.9694210312598955,-0.24448110966655995,"[0.017453292519943295, 0.0, 0.0, 0.0, 0.017453292519943295, 0.0, 0.0, 0.0, 0.15707963267948966]",,0.0,0.0,0.0,"[-1.0, -1.0, -1.0, -1.0, -1.0, -1.0, -1.0, -1.0, -1.0]",,-0.3543463945388794,0.24383217096328735,8.802299499511719,"[0.0004, 0.0, 0.0, 0.0, 0.0004, 0.0, 0.0, 0.0, 0.0004]"
1479513000021270587,,91885,,1479513000,20929098,"""/imu""",,4.083204639381985e-05,0.021243529613750832,0.969423313879893,-0.24447310973689496,"[0.017453292519943295, 0.0, 0.0, 0.0, 0.017453292519943295, 0.0, 0.0, 0.0, 0.15707963267948966]",,0.0,0.0,0.0,"[-1.0, -1.0, -1.0, -1.0, -1.0, -1.0, -1.0, -1.0, -1.0]",,-0.3283938765525818,0.19855806231498718,9.142674446105957,"[0.0004, 0.0, 0.0, 0.0, 0.0004, 0.0, 0.0, 0.0, 0.0004]"
1479513000021731721,,91886,,1479513000,21455049,"""/imu""",,2.231455426141189e-05,0.021254505576274937,0.9694253736131903,-0.244463982474587,"[0.017453292519943295, 0.0, 0.0, 0.0, 0.017453292519943295, 0.0, 0.0, 0.0, 0.15707963267948966]",,0.0,0.0,0.0,"[-1.0, -1.0, -1.0, -1.0, -1.0, -1.0, -1.0, -1.0, -1.0]",,-0.1709522008895874,0.07680069655179977,8.704309463500977,"[0.0004, 0.0, 0.0, 0.0, 0.0004, 0.0, 0.0, 0.0, 0.0004]"
1479513000026310151,,91887,,1479513000,26021957,"""/imu""",,2.8864056565805042e-05,0.0212767763952576,0.9694266878437159,-0.24445696462864477,"[0.017453292519943295, 0.0, 0.0, 0.0, 0.017453292519943295, 0.0, 0.0, 0.0, 0.15707963267948966]",,0.0,0.0,0.0,"[-1.0, -1.0, -1.0, -1.0, -1.0, -1.0, -1.0, -1.0, -1.0]",,-0.33135274052619934,0.09197407960891724,8.892009735107422,"[0.0004, 0.0, 0.0, 0.0, 0.0004, 0.0, 0.0, 0.0, 0.0004]"
1479513000026756823,,91888,,1479513000,26547908,"""/imu""",,6.131628984324002e-05,0.02129695692956736,0.9694269414669457,-0.24445413387486398,"[0.017453292519943295, 0.0, 0.0, 0.0, 0.017453292519943295, 0.0, 0.0, 0.0, 0.15707963267948966]",,0.0,0.0,0.0,"[-1.0, -1.0, -1.0, -1.0, -1.0, -1.0, -1.0, -1.0, -1.0]",,-0.08571287989616394,0.06601660698652267,9.292716979980469,"[0.0004, 0.0, 0.0, 0.0, 0.0004, 0.0, 0.0, 0.0, 0.0004]"
1479513000031173738,,91889,,1479513000,30889034,"""/imu""",,8.341644100589962e-05,0.02133775258860734,0.9694284785760091,-0.24444444677014757,"[0.017453292519943295, 0.0, 0.0, 0.0, 0.017453292519943295, 0.0, 0.0, 0.0, 0.15707963267948966]",,0.0,0.0,0.0,"[-1.0, -1.0, -1.0, -1.0, -1.0, -1.0, -1.0, -1.0, -1.0]",,0.00459012296050787,0.03951394930481911,9.445348739624023,"[0.0004, 0.0, 0.0, 0.0, 0.0004, 0.0, 0.0, 0.0, 0.0004]"
1479513000031789799,,91890,,1479513000,31483888,"""/imu""",,0.00010460356057361375,0.021386282691963722,0.9694328439524597,-0.24442277962131947,"[0.017453292519943295, 0.0, 0.0, 0.0, 0.017453292519943295, 0.0, 0.0, 0.0, 0.15707963267948966]",,0.0,0.0,0.0,"[-1.0, -1.0, -1.0, -1.0, -1.0, -1.0, -1.0, -1.0, -1.0]",,-0.12575669586658478,0.1100216880440712,9.809812545776367,"[0.0004, 0.0, 0.0, 0.0, 0.0004, 0.0, 0.0, 0.0, 0.0004]"
1479513000036175419,,91891,,1479513000,35860061,"""/imu""",,0.00011852973175136887,0.02143253840019982,0.9694364715038513,-0.24440438823931987,"[0.017453292519943295, 0.0, 0.0, 0.0, 0.017453292519943295, 0.0, 0.0, 0.0, 0.15707963267948966]",,0.0,0.0,0.0,"[-1.0, -1.0, -1.0, -1.0, -1.0, -1.0, -1.0, -1.0, -1.0]",,-0.10787702351808548,0.20882990956306458,10.0283784866333,"[0.0004, 0.0, 0.0, 0.0, 0.0004, 0.0, 0.0, 0.0, 0.0004]"
1479513000036760129,,91892,,1479513000,36465883,"""/imu""",,0.00012795128931488158,0.021480151786063884,0.9694428043152733,-0.24437512415388435,"[0.017453292519943295, 0.0, 0.0, 0.0, 0.017453292519943295, 0.0, 0.0, 0.0, 0.15707963267948966]",,0.0,0.0,0.0,"[-1.0, -1.0, -1.0, -1.0, -1.0, -1.0, -1.0, -1.0, -1.0]",,-0.18347859382629395,0.2083171159029007,10.22752857208252,"[0.0004, 0.0, 0.0, 0.0, 0.0004, 0.0, 0.0, 0.0, 0.0004]"
1479513000041168143,,91893,,1479513000,40895938,"""/imu""",,0.0001326275166567011,0.021518384193303784,0.9694418820637564,-0.24437564867980083,"[0.017453292519943295, 0.0, 0.0, 0.0, 0.017453292519943295, 0.0, 0.0, 0.0, 0.15707963267948966]",,0.0,0.0,0.0,"[-1.0, -1.0, -1.0, -1.0, -1.0, -1.0, -1.0, -1.0, -1.0]",,-0.2580137848854065,0.22598160803318024,10.320752143859863,"[0.0004, 0.0, 0.0, 0.0, 0.0004, 0.0, 0.0, 0.0, 0.0004]"
1479513000041715407,,91894,,1479513000,41429042,"""/imu""",,0.0001477426429500112,0.021555597856656988,0.9694463396046273,-0.24435475819116848,"[0.017453292519943295, 0.0, 0.0, 0.0, 0.017453292519943295, 0.0, 0.0, 0.0, 0.15707963267948966]",,0.0,0.0,0.0,"[-1.0, -1.0, -1.0, -1.0, -1.0, -1.0, -1.0, -1.0, -1.0]",,-0.39802342653274536,0.29816195368766785,10.610639572143555,"[0.0004, 0.0, 0.0, 0.0, 0.0004, 0.0, 0.0, 0.0, 0.0004]"
1479513000046389797,,91895,,1479513000,45995950,"""/imu""",,0.00015455407054816393,0.021564776275583612,0.9694538482090298,-0.24432406096989756,"[0.017453292519943295, 0.0, 0.0, 0.0, 0.017453292519943295, 0.0, 0.0, 0.0, 0.15707963267948966]",,0.0,0.0,0.0,"[-1.0, -1.0, -1.0, -1.0, -1.0, -1.0, -1.0, -1.0, -1.0]",,-0.4191766381263733,0.532514214515686,10.45895767211914,"[0.0004, 0.0, 0.0, 0.0, 0.0004, 0.0, 0.0, 0.0, 0.0004]"
1479513000047068735,,91896,,1479513000,46751976,"""/imu""",,0.00016026724150126431,0.021547729361155933,0.9694591587631125,-0.24430460067080556,"[0.017453292519943295, 0.0, 0.0, 0.0, 0.017453292519943295, 0.0, 0.0, 0.0, 0.15707963267948966]",,0.0,0.0,0.0,"[-1.0, -1.0, -1.0, -1.0, -1.0, -1.0, -1.0, -1.0, -1.0]",,-0.44819945096969604,0.5449740886688232,10.4901762008667,"[0.0004, 0.0, 0.0, 0.0, 0.0004, 0.0, 0.0, 0.0, 0.0004]"
1479513000051358017,,91897,,1479513000,50911903,"""/imu""",,0.00016845844404883852,0.021506797487911546,0.9694640081727609,-0.24428865366773891,"[0.017453292519943295, 0.0, 0.0, 0.0, 0.017453292519943295, 0.0, 0.0, 0.0, 0.15707963267948966]",,0.0,0.0,0.0,"[-1.0, -1.0, -1.0, -1.0, -1.0, -1.0, -1.0, -1.0, -1.0]",,-0.2996956408023834,0.7536489367485046,10.207756996154785,"[0.0004, 0.0, 0.0, 0.0, 0.0004, 0.0, 0.0, 0.0, 0.0004]"
1479513000051948254,,91898,,1479513000,51626920,"""/imu""",,0.00016080971260223136,0.02145509061078756,0.9694696721910361,-0.24427081082432667,"[0.017453292519943295, 0.0, 0.0, 0.0, 0.017453292519943295, 0.0, 0.0, 0.0, 0.15707963267948966]",,0.0,0.0,0.0,"[-1.0, -1.0, -1.0, -1.0, -1.0, -1.0, -1.0, -1.0, -1.0]",,-0.16102495789527893,0.7525718808174133,9.975120544433594,"[0.0004, 0.0, 0.0, 0.0, 0.0004, 0.0, 0.0, 0.0, 0.0004]"
1479513000056179023,,91899,,1479513000,55887937,"""/imu""",,0.00016133697363208933,0.021412983708333475,0.9694762660810728,-0.24424843022470374,"[0.017453292519943295, 0.0, 0.0, 0.0, 0.017453292519943295, 0.0, 0.0, 0.0, 0.15707963267948966]",,0.0,0.0,0.0,"[-1.0, -1.0, -1.0, -1.0, -1.0, -1.0, -1.0, -1.0, -1.0]",,-0.06801645457744598,0.7655400037765503,9.652290344238281,"[0.0004, 0.0, 0.0, 0.0, 0.0004, 0.0, 0.0, 0.0, 0.0004]"
1479513000056766269,,91900,,1479513000,56489944,"""/imu""",,0.00017133531744625464,0.021385934541004906,0.9694819838235406,-0.24422809970071443,"[0.017453292519943295, 0.0, 0.0, 0.0, 0.017453292519943295, 0.0, 0.0, 0.0, 0.15707963267948966]",,0.0,0.0,0.0,"[-1.0, -1.0, -1.0, -1.0, -1.0, -1.0, -1.0, -1.0, -1.0]",,0.06121111661195755,0.7184793949127197,9.440237998962402,"[0.0004, 0.0, 0.0, 0.0, 0.0004, 0.0, 0.0, 0.0, 0.0004]"
1479513000061220584,,91901,,1479513000,60893058,"""/imu""",,0.00017493505057504792,0.021369582040735573,0.9694861030364629,-0.24421307515917104,"[0.017453292519943295, 0.0, 0.0, 0.0, 0.017453292519943295, 0.0, 0.0, 0.0, 0.15707963267948966]",,0.0,0.0,0.0,"[-1.0, -1.0, -1.0, -1.0, -1.0, -1.0, -1.0, -1.0, -1.0]",,0.15776272118091583,0.7623967528343201,9.551997184753418,"[0.0004, 0.0, 0.0, 0.0, 0.0004, 0.0, 0.0, 0.0, 0.0004]"
1479513000061781432,,91902,,1479513000,61496019,"""/imu""",,0.00017651480731610596,0.0213643585607096,0.969488785126514,-0.24420287006804348,"[0.017453292519943295, 0.0, 0.0, 0.0, 0.017453292519943295, 0.0, 0.0, 0.0, 0.15707963267948966]",,0.0,0.0,0.0,"[-1.0, -1.0, -1.0, -1.0, -1.0, -1.0, -1.0, -1.0, -1.0]",,0.18132001161575317,0.607820987701416,9.403440475463867,"[0.0004, 0.0, 0.0, 0.0, 0.0004, 0.0, 0.0, 0.0, 0.0004]"
1479513000066333385,,91903,,1479513000,66001892,"""/imu""",,0.0001717124958385738,0.02136814335149978,0.969489399931211,-0.24420005617656798,"[0.017453292519943295, 0.0, 0.0, 0.0, 0.017453292519943295, 0.0, 0.0, 0.0, 0.15707963267948966]",,0.0,0.0,0.0,"[-1.0, -1.0, -1.0, -1.0, -1.0, -1.0, -1.0, -1.0, -1.0]",,-0.07835220545530319,0.5019070506095886,9.560474395751953,"[0.0004, 0.0, 0.0, 0.0, 0.0004, 0.0, 0.0, 0.0, 0.0004]"
1479513000066916870,,91904,,1479513000,66632986,"""/imu""",,0.00016163956569506934,0.021366446223942338,0.9694907371300807,-0.24419475481688718,"[0.017453292519943295, 0.0, 0.0, 0.0, 0.017453292519943295, 0.0, 0.0, 0.0, 0.15707963267948966]",,0.0,0.0,0.0,"[-1.0, -1.0, -1.0, -1.0, -1.0, -1.0, -1.0, -1.0, -1.0]",,-0.22442527115345,0.5085705518722534,9.628046035766602,"[0.0004, 0.0, 0.0, 0.0, 0.0004, 0.0, 0.0, 0.0, 0.0004]"
1479513000071264367,,91905,,1479513000,70931911,"""/imu""",,8.423551502276992e-05,0.02129765203992223,0.969471739511037,-0.24427660716793193,"[0.017453292519943295, 0.0, 0.0, 0.0, 0.017453292519943295, 0.0, 0.0, 0.0, 0.15707963267948966]",,0.0,0.0,0.0,"[-1.0, -1.0, -1.0, -1.0, -1.0, -1.0, -1.0, -1.0, -1.0]",,-0.4033275842666626,0.5155174136161804,9.53319263458252,"[0.0004, 0.0, 0.0, 0.0, 0.0004, 0.0, 0.0, 0.0, 0.0004]"
1479513000071764828,,91906,,1479513000,71511983,"""/imu""",,5.979210727906485e-05,0.021273363447806587,0.9694743447890722,-0.24426831165641508,"[0.017453292519943295, 0.0, 0.0, 0.0, 0.017453292519943295, 0.0, 0.0, 0.0, 0.15707963267948966]",,0.0,0.0,0.0,"[-1.0, -1.0, -1.0, -1.0, -1.0, -1.0, -1.0, -1.0, -1.0]",,-0.4693716764450073,0.26851361989974976,9.373749732971191,"[0.0004, 0.0, 0.0, 0.0, 0.0004, 0.0, 0.0, 0.0, 0.0004]"
1479513000076162425,,91907,,1479513000,75894117,"""/imu""",,3.826101916302555e-05,0.02124795009036726,0.9694770807077318,-0.24425975271992428,"[0.017453292519943295, 0.0, 0.0, 0.0, 0.017453292519943295, 0.0, 0.0, 0.0, 0.15707963267948966]",,0.0,0.0,0.0,"[-1.0, -1.0, -1.0, -1.0, -1.0, -1.0, -1.0, -1.0, -1.0]",,-0.45138075947761536,0.1403047740459442,9.138408660888672,"[0.0004, 0.0, 0.0, 0.0, 0.0004, 0.0, 0.0, 0.0, 0.0004]"
1479513000076724063,,91908,,1479513000,76440095,"""/imu""",,3.448705390120555e-05,0.021229494529679958,0.969479171067347,-0.24425313942616114,"[0.017453292519943295, 0.0, 0.0, 0.0, 0.017453292519943295, 0.0, 0.0, 0.0, 0.15707963267948966]",,0.0,0.0,0.0,"[-1.0, -1.0, -1.0, -1.0, -1.0, -1.0, -1.0, -1.0, -1.0]",,-0.3111035227775574,0.34052589535713196,8.804920196533203,"[0.0004, 0.0, 0.0, 0.0, 0.0004, 0.0, 0.0, 0.0, 0.0004]"
1479513000081264689,,91909,,1479513000,80890893,"""/imu""",,4.424642128999244e-05,0.021218796675292372,0.9694852346217617,-0.2442295709317294,"[0.017453292519943295, 0.0, 0.0, 0.0, 0.017453292519943295, 0.0, 0.0, 0.0, 0.15707963267948966]",,0.0,0.0,0.0,"[-1.0, -1.0, -1.0, -1.0, -1.0, -1.0, -1.0, -1.0, -1.0]",,-0.2644406259059906,0.3711806833744049,8.879401206970215,"[0.0004, 0.0, 0.0, 0.0, 0.0004, 0.0, 0.0, 0.0, 0.0004]"
1479513000081821391,,91910,,1479513000,81571102,"""/imu""",,5.373250830826479e-05,0.02122924240998408,0.9694887543862688,-0.2442148511368011,"[0.017453292519943295, 0.0, 0.0, 0.0, 0.017453292519943295, 0.0, 0.0, 0.0, 0.15707963267948966]",,0.0,0.0,0.0,"[-1.0, -1.0, -1.0, -1.0, -1.0, -1.0, -1.0, -1.0, -1.0]",,-0.2293866127729416,0.28622034192085266,8.643534660339355,"[0.0004, 0.0, 0.0, 0.0, 0.0004, 0.0, 0.0, 0.0, 0.0004]"
1479513000086262701,,91911,,1479513000,85964918,"""/imu""",,7.615698219981563e-05,0.021252566610902874,0.9694894537266033,-0.2442100024586845,"[0.017453292519943295, 0.0, 0.0, 0.0, 0.017453292519943295, 0.0, 0.0, 0.0, 0.15707963267948966]",,0.0,0.0,0.0,"[-1.0, -1.0, -1.0, -1.0, -1.0, -1.0, -1.0, -1.0, -1.0]",,-0.339071661233902,0.1933901607990265,8.822735786437988,"[0.0004, 0.0, 0.0, 0.0, 0.0004, 0.0, 0.0, 0.0, 0.0004]"
1479513000086868165,,91912,,1479513000,86563110,"""/imu""",,0.00011112872979378534,0.02129664451266136,0.9694941646543931,-0.24418748219170383,"[0.017453292519943295, 0.0, 0.0, 0.0, 0.017453292519943295, 0.0, 0.0, 0.0, 0.15707963267948966]",,0.0,0.0,0.0,"[-1.0, -1.0, -1.0, -1.0, -1.0, -1.0, -1.0, -1.0, -1.0]",,-0.3453613519668579,0.41422879695892334,9.17051887512207,"[0.0004, 0.0, 0.0, 0.0, 0.0004, 0.0, 0.0, 0.0, 0.0004]"
1479513000091163711,,91913,,1479513000,90892076,"""/imu""",,0.00014837683833906356,0.021348756466198097,0.9695018496424408,-0.24415236293441514,"[0.017453292519943295, 0.0, 0.0, 0.0, 0.017453292519943295, 0.0, 0.0, 0.0, 0.15707963267948966]",,0.0,0.0,0.0,"[-1.0, -1.0, -1.0, -1.0, -1.0, -1.0, -1.0, -1.0, -1.0]",,-0.34649720788002014,0.433793842792511,9.342111587524414,"[0.0004, 0.0, 0.0, 0.0, 0.0004, 0.0, 0.0, 0.0, 0.0004]"
1479513000091713720,,91914,,1479513000,91451883,"""/imu""",,0.000184891593761636,0.021413737835652567,0.9695010119817016,-0.2441500071069922,"[0.017453292519943295, 0.0, 0.0, 0.0, 0.017453292519943295, 0.0, 0.0, 0.0, 0.15707963267948966]",,0.0,0.0,0.0,"[-1.0, -1.0, -1.0, -1.0, -1.0, -1.0, -1.0, -1.0, -1.0]",,-0.4713302552700043,0.4384230971336365,9.646838188171387,"[0.0004, 0.0, 0.0, 0.0, 0.0004, 0.0, 0.0, 0.0, 0.0004]"
1479513000096111699,,91915,,1479513000,95868110,"""/imu""",,0.00022949549912657064,0.021460863527009995,0.9695014653944851,-0.24414412920336295,"[0.017453292519943295, 0.0, 0.0, 0.0, 0.017453292519943295, 0.0, 0.0, 0.0, 0.15707963267948966]",,0.0,0.0,0.0,"[-1.0, -1.0, -1.0, -1.0, -1.0, -1.0, -1.0, -1.0, -1.0]",,-0.36367639899253845,0.5460474491119385,10.360310554504395,"[0.0004, 0.0, 0.0, 0.0, 0.0004, 0.0, 0.0, 0.0, 0.0004]"
1479513000096664347,,91916,,1479513000,96393108,"""/imu""",,0.00026145636080455504,0.021511923045967645,0.9695065451401569,-0.24411938025932858,"[0.017453292519943295, 0.0, 0.0, 0.0, 0.017453292519943295, 0.0, 0.0, 0.0, 0.15707963267948966]",,0.0,0.0,0.0,"[-1.0, -1.0, -1.0, -1.0, -1.0, -1.0, -1.0, -1.0, -1.0]",,-0.2656365633010864,0.48611611127853394,10.74570083618164,"[0.0004, 0.0, 0.0, 0.0, 0.0004, 0.0, 0.0, 0.0, 0.0004]"
1479513000101276158,,91917,,1479513000,100914955,"""/imu""",,0.00028618426998715805,0.021559743662842887,0.9695089966266551,-0.24410549884355848,"[0.017453292519943295, 0.0, 0.0, 0.0, 0.017453292519943295, 0.0, 0.0, 0.0, 0.15707963267948966]",,0.0,0.0,0.0,"[-1.0, -1.0, -1.0, -1.0, -1.0, -1.0, -1.0, -1.0, -1.0]",,-0.29587528109550476,0.4977736175060272,10.980270385742188,"[0.0004, 0.0, 0.0, 0.0, 0.0004, 0.0, 0.0, 0.0, 0.0004]"
1479513000101856923,,91918,,1479513000,101560115,"""/imu""",,0.0003372333061900819,0.021604729734910153,0.969512677687216,-0.24408695829399552,"[0.017453292519943295, 0.0, 0.0, 0.0, 0.017453292519943295, 0.0, 0.0, 0.0, 0.15707963267948966]",,0.0,0.0,0.0,"[-1.0, -1.0, -1.0, -1.0, -1.0, -1.0, -1.0, -1.0, -1.0]",,-0.17125147581100464,0.6473355293273926,11.513334274291992,"[0.0004, 0.0, 0.0, 0.0, 0.0004, 0.0, 0.0, 0.0, 0.0004]"
1479513000106250384,,91919,,1479513000,105947971,"""/imu""",,0.00037516915811523094,0.021638591781605442,0.9695115326406478,-0.2440884915248449,"[0.017453292519943295, 0.0, 0.0, 0.0, 0.017453292519943295, 0.0, 0.0, 0.0, 0.15707963267948966]",,0.0,0.0,0.0,"[-1.0, -1.0, -1.0, -1.0, -1.0, -1.0, -1.0, -1.0, -1.0]",,0.08931624889373779,0.7307063937187195,11.375638961791992,"[0.0004, 0.0, 0.0, 0.0, 0.0004, 0.0, 0.0, 0.0, 0.0004]"
1479513000106793086,,91920,,1479513000,106508016,"""/imu""",,0.0003930829714896489,0.021661090542886882,0.9695130235063835,-0.24408078481345796,"[0.017453292519943295, 0.0, 0.0, 0.0, 0.017453292519943295, 0.0, 0.0, 0.0, 0.15707963267948966]",,0.0,0.0,0.0,"[-1.0, -1.0, -1.0, -1.0, -1.0, -1.0, -1.0, -1.0, -1.0]",,0.030315428972244263,0.6392967104911804,11.489367485046387,"[0.0004, 0.0, 0.0, 0.0, 0.0004, 0.0, 0.0, 0.0, 0.0004]"
1479513000111779850,,91921,,1479513000,110949039,"""/imu""",,0.0004137946916126519,0.021683207447755263,0.969514060963146,-0.2440743911087902,"[0.017453292519943295, 0.0, 0.0, 0.0, 0.017453292519943295, 0.0, 0.0, 0.0, 0.15707963267948966]",,0.0,0.0,0.0,"[-1.0, -1.0, -1.0, -1.0, -1.0, -1.0, -1.0, -1.0, -1.0]",,0.10651964694261551,0.5362509489059448,11.236123085021973,"[0.0004, 0.0, 0.0, 0.0, 0.0004, 0.0, 0.0, 0.0, 0.0004]"
1479513000112358477,,91922,,1479513000,111905097,"""/imu""",,0.00042265573053573295,0.021694087046711392,0.9695153597037502,-0.24406817755683435,"[0.017453292519943295, 0.0, 0.0, 0.0, 0.017453292519943295, 0.0, 0.0, 0.0, 0.15707963267948966]",,0.0,0.0,0.0,"[-1.0, -1.0, -1.0, -1.0, -1.0, -1.0, -1.0, -1.0, -1.0]",,0.12735703587532043,0.6742684245109558,11.131391525268555,"[0.0004, 0.0, 0.0, 0.0, 0.0004, 0.0, 0.0, 0.0, 0.0004]"
1479513000116373395,,91923,,1479513000,115909099,"""/imu""",,0.0004170715513107061,0.021687570814325038,0.9695202318867252,-0.24404947576547362,"[0.017453292519943295, 0.0, 0.0, 0.0, 0.017453292519943295, 0.0, 0.0, 0.0, 0.15707963267948966]",,0.0,0.0,0.0,"[-1.0, -1.0, -1.0, -1.0, -1.0, -1.0, -1.0, -1.0, -1.0]",,0.10853198170661926,0.6872280240058899,10.666375160217285,"[0.0004, 0.0, 0.0, 0.0, 0.0004, 0.0, 0.0, 0.0, 0.0004]"
1479513000116984154,,91924,,1479513000,116683959,"""/imu""",,0.0004016322150559514,0.021655474560438065,0.9695261952824047,-0.24402867052870222,"[0.017453292519943295, 0.0, 0.0, 0.0, 0.017453292519943295, 0.0, 0.0, 0.0, 0.15707963267948966]",,0.0,0.0,0.0,"[-1.0, -1.0, -1.0, -1.0, -1.0, -1.0, -1.0, -1.0, -1.0]",,-0.07641731947660446,0.650684654712677,10.382530212402344,"[0.0004, 0.0, 0.0, 0.0, 0.0004, 0.0, 0.0, 0.0, 0.0004]"
1479513000121964684,,91925,,1479513000,121022939,"""/imu""",,0.00037119212171728887,0.021614643469441305,0.969529384454474,-0.24401953756282296,"[0.017453292519943295, 0.0, 0.0, 0.0, 0.017453292519943295, 0.0, 0.0, 0.0, 0.15707963267948966]",,0.0,0.0,0.0,"[-1.0, -1.0, -1.0, -1.0, -1.0, -1.0, -1.0, -1.0, -1.0]",,-0.18492402136325836,0.6079400777816772,10.227790832519531,"[0.0004, 0.0, 0.0, 0.0, 0.0004, 0.0, 0.0, 0.0, 0.0004]"
1479513000122649021,,91926,,1479513000,122212886,"""/imu""",,0.000327759648121475,0.021555827819466595,0.9695358011905842,-0.24399937171591432,"[0.017453292519943295, 0.0, 0.0, 0.0, 0.017453292519943295, 0.0, 0.0, 0.0, 0.15707963267948966]",,0.0,0.0,0.0,"[-1.0, -1.0, -1.0, -1.0, -1.0, -1.0, -1.0, -1.0, -1.0]",,-0.23090128600597382,0.5873668789863586,9.753717422485352,"[0.0004, 0.0, 0.0, 0.0, 0.0004, 0.0, 0.0, 0.0, 0.0004]"
1479513000126487308,,91927,,1479513000,126009941,"""/imu""",,0.0002791687279752537,0.021488183961503076,0.9695396742658393,-0.2439898977662526,"[0.017453292519943295, 0.0, 0.0, 0.0, 0.017453292519943295, 0.0, 0.0, 0.0, 0.15707963267948966]",,0.0,0.0,0.0,"[-1.0, -1.0, -1.0, -1.0, -1.0, -1.0, -1.0, -1.0, -1.0]",,-0.3996778130531311,0.4930885434150696,9.324800491333008,"[0.0004, 0.0, 0.0, 0.0, 0.0004, 0.0, 0.0, 0.0, 0.0004]"
1479513000126823451,,91928,,1479513000,126584053,"""/imu""",,0.00025195363329190244,0.021426945092602165,0.9695410575032521,-0.24398991853062713,"[0.017453292519943295, 0.0, 0.0, 0.0, 0.017453292519943295, 0.0, 0.0, 0.0, 0.15707963267948966]",,0.0,0.0,0.0,"[-1.0, -1.0, -1.0, -1.0, -1.0, -1.0, -1.0, -1.0, -1.0]",,-0.42572683095932007,0.47492459416389465,9.098865509033203,"[0.0004, 0.0, 0.0, 0.0, 0.0004, 0.0, 0.0, 0.0, 0.0004]"
1479513000131200998,,91929,,1479513000,130892038,"""/imu""",,0.00023721350301956148,0.021382691376463252,0.9695450535113598,-0.2439778317040574,"[0.017453292519943295, 0.0, 0.0, 0.0, 0.017453292519943295, 0.0, 0.0, 0.0, 0.15707963267948966]",,0.0,0.0,0.0,"[-1.0, -1.0, -1.0, -1.0, -1.0, -1.0, -1.0, -1.0, -1.0]",,-0.3031659424304962,0.4146110415458679,8.947744369506836,"[0.0004, 0.0, 0.0, 0.0, 0.0004, 0.0, 0.0, 0.0, 0.0004]"
1479513000131647614,,91930,,1479513000,131416082,"""/imu""",,0.00022025541089553438,0.02136465382474341,0.9695495797391119,-0.24396138504045703,"[0.017453292519943295, 0.0, 0.0, 0.0, 0.017453292519943295, 0.0, 0.0, 0.0, 0.15707963267948966]",,0.0,0.0,0.0,"[-1.0, -1.0, -1.0, -1.0, -1.0, -1.0, -1.0, -1.0, -1.0]",,-0.39966973662376404,0.2961369752883911,8.843324661254883,"[0.0004, 0.0, 0.0, 0.0, 0.0004, 0.0, 0.0, 0.0, 0.0004]"
1479513000136156476,,91931,,1479513000,135860919,"""/imu""",,0.00022228520893718569,0.021362431836069146,0.969551201183981,-0.24395518288455356,"[0.017453292519943295, 0.0, 0.0, 0.0, 0.017453292519943295, 0.0, 0.0, 0.0, 0.15707963267948966]",,0.0,0.0,0.0,"[-1.0, -1.0, -1.0, -1.0, -1.0, -1.0, -1.0, -1.0, -1.0]",,-0.4685971736907959,0.4738377034664154,8.697282791137695,"[0.0004, 0.0, 0.0, 0.0, 0.0004, 0.0, 0.0, 0.0, 0.0004]"
1479513000136667340,,91932,,1479513000,136403083,"""/imu""",,0.00023531557668437432,0.021369591004820554,0.9695562115083369,-0.2439346340482341,"[0.017453292519943295, 0.0, 0.0, 0.0, 0.017453292519943295, 0.0, 0.0, 0.0, 0.15707963267948966]",,0.0,0.0,0.0,"[-1.0, -1.0, -1.0, -1.0, -1.0, -1.0, -1.0, -1.0, -1.0]",,-0.4197627305984497,0.5604231953620911,8.81527042388916,"[0.0004, 0.0, 0.0, 0.0, 0.0004, 0.0, 0.0, 0.0, 0.0004]"
1479513000141073577,,91933,,1479513000,140856027,"""/imu""",,0.00023718531711980752,0.021389120095646426,0.9695581787451769,-0.24392510211896645,"[0.017453292519943295, 0.0, 0.0, 0.0, 0.017453292519943295, 0.0, 0.0, 0.0, 0.15707963267948966]",,0.0,0.0,0.0,"[-1.0, -1.0, -1.0, -1.0, -1.0, -1.0, -1.0, -1.0, -1.0]",,-0.3007415533065796,0.5329533219337463,8.708366394042969,"[0.0004, 0.0, 0.0, 0.0, 0.0004, 0.0, 0.0, 0.0, 0.0004]"
1479513000141698034,,91934,,1479513000,141355037,"""/imu""",,0.00023316913460883195,0.021406037446630822,0.9695604456733045,-0.24391446511195677,"[0.017453292519943295, 0.0, 0.0, 0.0, 0.017453292519943295, 0.0, 0.0, 0.0, 0.15707963267948966]",,0.0,0.0,0.0,"[-1.0, -1.0, -1.0, -1.0, -1.0, -1.0, -1.0, -1.0, -1.0]",,-0.5814635157585144,0.43788430094718933,8.913777351379395,"[0.0004, 0.0, 0.0, 0.0, 0.0004, 0.0, 0.0, 0.0, 0.0004]"
1479513000146358338,,91935,,1479513000,146002054,"""/imu""",,0.00026170226746198154,0.021421819441764967,0.969558186429688,-0.24392214933342513,"[0.017453292519943295, 0.0, 0.0, 0.0, 0.017453292519943295, 0.0, 0.0, 0.0, 0.15707963267948966]",,0.0,0.0,0.0,"[-1.0, -1.0, -1.0, -1.0, -1.0, -1.0, -1.0, -1.0, -1.0]",,-0.21452456712722778,0.48499739170074463,8.53158950805664,"[0.0004, 0.0, 0.0, 0.0, 0.0004, 0.0, 0.0, 0.0, 0.0004]"
1479513000147141463,,91936,,1479513000,146646976,"""/imu""",,0.0003034179816659088,0.021438018523640388,0.9695632197713605,-0.2439007497338323,"[0.017453292519943295, 0.0, 0.0, 0.0, 0.017453292519943295, 0.0, 0.0, 0.0, 0.15707963267948966]",,0.0,0.0,0.0,"[-1.0, -1.0, -1.0, -1.0, -1.0, -1.0, -1.0, -1.0, -1.0]",,-0.26990360021591187,0.6593815088272095,9.46532917022705,"[0.0004, 0.0, 0.0, 0.0, 0.0004, 0.0, 0.0, 0.0, 0.0004]"
1479513000151435381,,91937,,1479513000,150929927,"""/imu""",,0.0003092516024050552,0.0214650503529826,0.9695687833125157,-0.24387631227988754,"[0.017453292519943295, 0.0, 0.0, 0.0, 0.017453292519943295, 0.0, 0.0, 0.0, 0.15707963267948966]",,0.0,0.0,0.0,"[-1.0, -1.0, -1.0, -1.0, -1.0, -1.0, -1.0, -1.0, -1.0]",,0.21527992188930511,0.4263020157814026,9.036409378051758,"[0.0004, 0.0, 0.0, 0.0, 0.0004, 0.0, 0.0, 0.0, 0.0004]"
1479513000152028732,,91938,,1479513000,151715040,"""/imu""",,0.00032827286555144324,0.02149689870223088,0.9695676460166434,-0.24387796617466848,"[0.017453292519943295, 0.0, 0.0, 0.0, 0.017453292519943295, 0.0, 0.0, 0.0, 0.15707963267948966]",,0.0,0.0,0.0,"[-1.0, -1.0, -1.0, -1.0, -1.0, -1.0, -1.0, -1.0, -1.0]",,-0.22878356277942657,0.5302515029907227,9.360906600952148,"[0.0004, 0.0, 0.0, 0.0, 0.0004, 0.0, 0.0, 0.0, 0.0004]"
1479513000156184726,,91939,,1479513000,155864000,"""/imu""",,0.00038078005031660564,0.02153498501760138,0.9695703125122951,-0.2438639245836675,"[0.017453292519943295, 0.0, 0.0, 0.0, 0.017453292519943295, 0.0, 0.0, 0.0, 0.15707963267948966]",,0.0,0.0,0.0,"[-1.0, -1.0, -1.0, -1.0, -1.0, -1.0, -1.0, -1.0, -1.0]",,0.11677192151546478,0.4514136016368866,10.023002624511719,"[0.0004, 0.0, 0.0, 0.0, 0.0004, 0.0, 0.0, 0.0, 0.0004]"
1479513000156699937,,91940,,1479513000,156459093,"""/imu""",,0.0004146083709858219,0.021593183299526714,0.9695768519273579,-0.24383289481272724,"[0.017453292519943295, 0.0, 0.0, 0.0, 0.017453292519943295, 0.0, 0.0, 0.0, 0.15707963267948966]",,0.0,0.0,0.0,"[-1.0, -1.0, -1.0, -1.0, -1.0, -1.0, -1.0, -1.0, -1.0]",,0.1390465348958969,0.399403840303421,10.119457244873047,"[0.0004, 0.0, 0.0, 0.0, 0.0004, 0.0, 0.0, 0.0, 0.0004]"
1479513000161234637,,91941,,1479513000,160862922,"""/imu""",,0.00045212227744049387,0.021650578027457196,0.9695752074722569,-0.24383410754240584,"[0.017453292519943295, 0.0, 0.0, 0.0, 0.017453292519943295, 0.0, 0.0, 0.0, 0.15707963267948966]",,0.0,0.0,0.0,"[-1.0, -1.0, -1.0, -1.0, -1.0, -1.0, -1.0, -1.0, -1.0]",,-0.13285259902477264,0.522535502910614,10.380731582641602,"[0.0004, 0.0, 0.0, 0.0, 0.0004, 0.0, 0.0, 0.0, 0.0004]"
1479513000162111086,,91942,,1479513000,161570072,"""/imu""",,0.0004922607984566492,0.021702966962333935,0.9695711424287536,-0.24384562674802301,"[0.017453292519943295, 0.0, 0.0, 0.0, 0.017453292519943295, 0.0, 0.0, 0.0, 0.15707963267948966]",,0.0,0.0,0.0,"[-1.0, -1.0, -1.0, -1.0, -1.0, -1.0, -1.0, -1.0, -1.0]",,0.0012752386974170804,0.5990632772445679,10.70386028289795,"[0.0004, 0.0, 0.0, 0.0, 0.0004, 0.0, 0.0, 0.0, 0.0004]"
1479513000166415672,,91943,,1479513000,166004896,"""/imu""",,0.0005206766739963488,0.021737787075786514,0.9695767059244476,-0.24382039064761282,"[0.017453292519943295, 0.0, 0.0, 0.0, 0.017453292519943295, 0.0, 0.0, 0.0, 0.15707963267948966]",,0.0,0.0,0.0,"[-1.0, -1.0, -1.0, -1.0, -1.0, -1.0, -1.0, -1.0, -1.0]",,-0.15806995332241058,0.5869419574737549,11.003751754760742,"[0.0004, 0.0, 0.0, 0.0, 0.0004, 0.0, 0.0, 0.0, 0.0004]"
1479513000167121664,,91944,,1479513000,166794061,"""/imu""",,0.0005404641186546796,0.021757747599900297,0.969578058371616,-0.24381304241645207,"[0.017453292519943295, 0.0, 0.0, 0.0, 0.017453292519943295, 0.0, 0.0, 0.0, 0.15707963267948966]",,0.0,0.0,0.0,"[-1.0, -1.0, -1.0, -1.0, -1.0, -1.0, -1.0, -1.0, -1.0]",,-0.14777718484401703,0.6242185831069946,11.08467960357666,"[0.0004, 0.0, 0.0, 0.0, 0.0004, 0.0, 0.0, 0.0, 0.0004]"
1479513000171189193,,91945,,1479513000,170902013,"""/imu""",,0.0005580156049469594,0.02177708687407613,0.9695781582682071,-0.24381060440938782,"[0.017453292519943295, 0.0, 0.0, 0.0, 0.017453292519943295, 0.0, 0.0, 0.0, 0.15707963267948966]",,0.0,0.0,0.0,"[-1.0, -1.0, -1.0, -1.0, -1.0, -1.0, -1.0, -1.0, -1.0]",,-0.2663622200489044,0.5488734841346741,11.27479076385498,"[0.0004, 0.0, 0.0, 0.0, 0.0004, 0.0, 0.0, 0.0, 0.0004]"
1479513000171822910,,91946,,1479513000,171439886,"""/imu""",,0.0005674042264509073,0.02178750890797435,0.9695793493421533,-0.243804849017953,"[0.017453292519943295, 0.0, 0.0, 0.0, 0.017453292519943295, 0.0, 0.0, 0.0, 0.15707963267948966]",,0.0,0.0,0.0,"[-1.0, -1.0, -1.0, -1.0, -1.0, -1.0, -1.0, -1.0, -1.0]",,-0.2422494888305664,0.4483078718185425,11.271206855773926,"[0.0004, 0.0, 0.0, 0.0, 0.0004, 0.0, 0.0, 0.0, 0.0004]"
1479513000176209398,,91947,,1479513000,175874948,"""/imu""",,0.0005667899132012906,0.021791876001635388,0.9695818928564562,-0.24379440424579207,"[0.017453292519943295, 0.0, 0.0, 0.0, 0.017453292519943295, 0.0, 0.0, 0.0, 0.15707963267948966]",,0.0,0.0,0.0,"[-1.0, -1.0, -1.0, -1.0, -1.0, -1.0, -1.0, -1.0, -1.0]",,-0.18330474197864532,0.46353545784950256,11.332817077636719,"[0.0004, 0.0, 0.0, 0.0, 0.0004, 0.0, 0.0, 0.0, 0.0004]"
1479513000176753192,,91948,,1479513000,176481008,"""/imu""",,0.0005580515640063431,0.021788208874653183,0.9695841059390012,-0.2437860097916136,"[0.017453292519943295, 0.0, 0.0, 0.0, 0.017453292519943295, 0.0, 0.0, 0.0, 0.15707963267948966]",,0.0,0.0,0.0,"[-1.0, -1.0, -1.0, -1.0, -1.0, -1.0, -1.0, -1.0, -1.0]",,-0.1173669844865799,0.5540482997894287,11.348711013793945,"[0.0004, 0.0, 0.0, 0.0, 0.0004, 0.0, 0.0, 0.0, 0.0004]"
1479513000181366120,,91949,,1479513000,180962085,"""/imu""",,0.000537140506073239,0.021779073929721577,0.9695852278469731,-0.24378256177634094,"[0.017453292519943295, 0.0, 0.0, 0.0, 0.017453292519943295, 0.0, 0.0, 0.0, 0.15707963267948966]",,0.0,0.0,0.0,"[-1.0, -1.0, -1.0, -1.0, -1.0, -1.0, -1.0, -1.0, -1.0]",,-0.1300378441810608,0.46631014347076416,11.2127685546875,"[0.0004, 0.0, 0.0, 0.0, 0.0004, 0.0, 0.0, 0.0, 0.0004]"
1479513000182174949,,91950,,1479513000,181730031,"""/imu""",,0.0005037893714658618,0.021757843885733257,0.9695867800736704,-0.2437783293587962,"[0.017453292519943295, 0.0, 0.0, 0.0, 0.017453292519943295, 0.0, 0.0, 0.0, 0.15707963267948966]",,0.0,0.0,0.0,"[-1.0, -1.0, -1.0, -1.0, -1.0, -1.0, -1.0, -1.0, -1.0]",,-0.2431177943944931,0.5720037817955017,10.907933235168457,"[0.0004, 0.0, 0.0, 0.0, 0.0004, 0.0, 0.0, 0.0, 0.0004]"
1479513000186258485,,91951,,1479513000,185951948,"""/imu""",,0.0004899881508185413,0.021707540694692124,0.9695910678949008,-0.24376583250206516,"[0.017453292519943295, 0.0, 0.0, 0.0, 0.017453292519943295, 0.0, 0.0, 0.0, 0.15707963267948966]",,0.0,0.0,0.0,"[-1.0, -1.0, -1.0, -1.0, -1.0, -1.0, -1.0, -1.0, -1.0]",,-0.18294328451156616,0.6630500555038452,10.592809677124023,"[0.0004, 0.0, 0.0, 0.0, 0.0004, 0.0, 0.0, 0.0, 0.0004]"
1479513000186877758,,91952,,1479513000,186573028,"""/imu""",,0.000467871691636426,0.021635265173379842,0.9695955170657016,-0.24375460150965841,"[0.017453292519943295, 0.0, 0.0, 0.0, 0.017453292519943295, 0.0, 0.0, 0.0, 0.15707963267948966]",,0.0,0.0,0.0,"[-1.0, -1.0, -1.0, -1.0, -1.0, -1.0, -1.0, -1.0, -1.0]",,-0.20013348758220673,0.5548646450042725,10.136545181274414,"[0.0004, 0.0, 0.0, 0.0, 0.0004, 0.0, 0.0, 0.0, 0.0004]"
1479513000191218527,,91953,,1479513000,190895080,"""/imu""",,0.0004545775224529316,0.0215574558006401,0.9695985830627134,-0.243749297053235,"[0.017453292519943295, 0.0, 0.0, 0.0, 0.017453292519943295, 0.0, 0.0, 0.0, 0.15707963267948966]",,0.0,0.0,0.0,"[-1.0, -1.0, -1.0, -1.0, -1.0, -1.0, -1.0, -1.0, -1.0]",,-0.2254493534564972,0.5070841908454895,9.719472885131836,"[0.0004, 0.0, 0.0, 0.0, 0.0004, 0.0, 0.0, 0.0, 0.0004]"
1479513000191750824,,91954,,1479513000,191466093,"""/imu""",,0.0004484013205784197,0.02147708352286463,0.9696028093584911,-0.24373958223982262,"[0.017453292519943295, 0.0, 0.0, 0.0, 0.017453292519943295, 0.0, 0.0, 0.0, 0.15707963267948966]",,0.0,0.0,0.0,"[-1.0, -1.0, -1.0, -1.0, -1.0, -1.0, -1.0, -1.0, -1.0]",,-0.17089734971523285,0.5888203978538513,9.174821853637695,"[0.0004, 0.0, 0.0, 0.0, 0.0004, 0.0, 0.0, 0.0, 0.0004]"
1479513000196218449,,91955,,1479513000,195875883,"""/imu""",,0.00043188755039843223,0.021399479572551602,0.9696082804631199,-0.24372475971706692,"[0.017453292519943295, 0.0, 0.0, 0.0, 0.017453292519943295, 0.0, 0.0, 0.0, 0.15707963267948966]",,0.0,0.0,0.0,"[-1.0, -1.0, -1.0, -1.0, -1.0, -1.0, -1.0, -1.0, -1.0]",,-0.16781887412071228,0.6393627524375916,8.913590431213379,"[0.0004, 0.0, 0.0, 0.0, 0.0004, 0.0, 0.0, 0.0, 0.0004]"
1479513000196724861,,91956,,1479513000,196464061,"""/imu""",,0.0004244487109340795,0.021348710044341808,0.9696118843059053,-0.24371481735904213,"[0.017453292519943295, 0.0, 0.0, 0.0, 0.017453292519943295, 0.0, 0.0, 0.0, 0.15707963267948966]",,0.0,0.0,0.0,"[-1.0, -1.0, -1.0, -1.0, -1.0, -1.0, -1.0, -1.0, -1.0]",,-0.04211363196372986,0.6195969581604004,8.501323699951172,"[0.0004, 0.0, 0.0, 0.0, 0.0004, 0.0, 0.0, 0.0, 0.0004]"
1479513000201303758,,91957,,1479513000,200927972,"""/imu""",,0.0004168380158192644,0.02132794430817494,0.9696154420309534,-0.2437025660809399,"[0.017453292519943295, 0.0, 0.0, 0.0, 0.017453292519943295, 0.0, 0.0, 0.0, 0.15707963267948966]",,0.0,0.0,0.0,"[-1.0, -1.0, -1.0, -1.0, -1.0, -1.0, -1.0, -1.0, -1.0]",,-0.026514897122979164,0.6531705260276794,8.412854194641113,"[0.0004, 0.0, 0.0, 0.0, 0.0004, 0.0, 0.0, 0.0, 0.0004]"
1479513000201846976,,91958,,1479513000,201596021,"""/imu""",,0.00041650982602335726,0.021334457479600513,0.9696169711571466,-0.24369597304339044,"[0.017453292519943295, 0.0, 0.0, 0.0, 0.017453292519943295, 0.0, 0.0, 0.0, 0.15707963267948966]",,0.0,0.0,0.0,"[-1.0, -1.0, -1.0, -1.0, -1.0, -1.0, -1.0, -1.0, -1.0]",,0.06299454718828201,0.5732865333557129,8.568350791931152,"[0.0004, 0.0, 0.0, 0.0, 0.0004, 0.0, 0.0, 0.0, 0.0004]"
1479513000206391841,,91959,,1479513000,205949068,"""/imu""",,0.00041505584085578713,0.021366190483709566,0.9696164563259839,-0.2436951803512022,"[0.017453292519943295, 0.0, 0.0, 0.0, 0.017453292519943295, 0.0, 0.0, 0.0, 0.15707963267948966]",,0.0,0.0,0.0,"[-1.0, -1.0, -1.0, -1.0, -1.0, -1.0, -1.0, -1.0, -1.0]",,0.054155442863702774,0.49602341651916504,8.725082397460938,"[0.0004, 0.0, 0.0, 0.0, 0.0004, 0.0, 0.0, 0.0, 0.0004]"
1479513000206825518,,91960,,1479513000,206500053,"""/imu""",,0.0004036841869763423,0.021419618469421184,0.969614681308984,-0.2436975782218247,"[0.017453292519943295, 0.0, 0.0, 0.0, 0.017453292519943295, 0.0, 0.0, 0.0, 0.15707963267948966]",,0.0,0.0,0.0,"[-1.0, -1.0, -1.0, -1.0, -1.0, -1.0, -1.0, -1.0, -1.0]",,0.14052815735340118,0.45470792055130005,9.30320930480957,"[0.0004, 0.0, 0.0, 0.0, 0.0004, 0.0, 0.0, 0.0, 0.0004]"
1479513000211566188,,91961,,1479513000,210963964,"""/imu""",,0.0004034432855986665,0.02148208960993876,0.9696153882425508,-0.2436890556585211,"[0.017453292519943295, 0.0, 0.0, 0.0, 0.017453292519943295, 0.0, 0.0, 0.0, 0.15707963267948966]",,0.0,0.0,0.0,"[-1.0, -1.0, -1.0, -1.0, -1.0, -1.0, -1.0, -1.0, -1.0]",,-0.3057691156864166,0.3552589416503906,9.496537208557129,"[0.0004, 0.0, 0.0, 0.0, 0.0004, 0.0, 0.0, 0.0, 0.0004]"
1479513000212580848,,91962,,1479513000,211836099,"""/imu""",,0.0004374630497227278,0.02154346326932001,0.9696099786508348,-0.24370521481206892,"[0.017453292519943295, 0.0, 0.0, 0.0, 0.017453292519943295, 0.0, 0.0, 0.0, 0.15707963267948966]",,0.0,0.0,0.0,"[-1.0, -1.0, -1.0, -1.0, -1.0, -1.0, -1.0, -1.0, -1.0]",,-0.19472447037696838,0.4792434275150299,9.558680534362793,"[0.0004, 0.0, 0.0, 0.0, 0.0004, 0.0, 0.0, 0.0, 0.0004]"
1479513000216509918,,91963,,1479513000,215873956,"""/imu""",,0.0004659406246665256,0.02159660371499679,0.9696053604953897,-0.24371877775858714,"[0.017453292519943295, 0.0, 0.0, 0.0, 0.017453292519943295, 0.0, 0.0, 0.0, 0.15707963267948966]",,0.0,0.0,0.0,"[-1.0, -1.0, -1.0, -1.0, -1.0, -1.0, -1.0, -1.0, -1.0]",,-0.3396899104118347,0.5120386481285095,10.649406433105469,"[0.0004, 0.0, 0.0, 0.0, 0.0004, 0.0, 0.0, 0.0, 0.0004]"
1479513000216977172,,91964,,1479513000,216660976,"""/imu""",,0.0004585539344736892,0.02164821669590605,0.96961110052887,-0.24369156251605145,"[0.017453292519943295, 0.0, 0.0, 0.0, 0.017453292519943295, 0.0, 0.0, 0.0, 0.15707963267948966]",,0.0,0.0,0.0,"[-1.0, -1.0, -1.0, -1.0, -1.0, -1.0, -1.0, -1.0, -1.0]",,-0.17788149416446686,0.2778733968734741,9.951743125915527,"[0.0004, 0.0, 0.0, 0.0, 0.0004, 0.0, 0.0, 0.0, 0.0004]"
1479513000221191553,,91965,,1479513000,220911979,"""/imu""",,0.0004815491729988207,0.021669658035835315,0.9696118382013914,-0.24368641319810974,"[0.017453292519943295, 0.0, 0.0, 0.0, 0.017453292519943295, 0.0, 0.0, 0.0, 0.15707963267948966]",,0.0,0.0,0.0,"[-1.0, -1.0, -1.0, -1.0, -1.0, -1.0, -1.0, -1.0, -1.0]",,-0.7380063533782959,0.413720041513443,10.540027618408203,"[0.0004, 0.0, 0.0, 0.0, 0.0004, 0.0, 0.0, 0.0, 0.0004]"
1479513000221790203,,91966,,1479513000,221523046,"""/imu""",,0.0005248785717080977,0.02168393952663321,0.969607773311461,-0.2437012047450338,"[0.017453292519943295, 0.0, 0.0, 0.0, 0.017453292519943295, 0.0, 0.0, 0.0, 0.15707963267948966]",,0.0,0.0,0.0,"[-1.0, -1.0, -1.0, -1.0, -1.0, -1.0, -1.0, -1.0, -1.0]",,-0.19704732298851013,0.20261099934577942,10.620975494384766,"[0.0004, 0.0, 0.0, 0.0, 0.0004, 0.0, 0.0, 0.0, 0.0004]"
1479513000226325950,,91967,,1479513000,226038932,"""/imu""",,0.000540093098987283,0.02169780027760977,0.9696112695788723,-0.24368607969289474,"[0.017453292519943295, 0.0, 0.0, 0.0, 0.017453292519943295, 0.0, 0.0, 0.0, 0.15707963267948966]",,0.0,0.0,0.0,"[-1.0, -1.0, -1.0, -1.0, -1.0, -1.0, -1.0, -1.0, -1.0]",,-0.2164970189332962,0.3032788932323456,10.713977813720703,"[0.0004, 0.0, 0.0, 0.0, 0.0004, 0.0, 0.0, 0.0, 0.0004]"
1479513000226842054,,91968,,1479513000,226563930,"""/imu""",,0.0005504610522152764,0.021695093303267698,0.9696160029669725,-0.24366758560014132,"[0.017453292519943295, 0.0, 0.0, 0.0, 0.017453292519943295, 0.0, 0.0, 0.0, 0.15707963267948966]",,0.0,0.0,0.0,"[-1.0, -1.0, -1.0, -1.0, -1.0, -1.0, -1.0, -1.0, -1.0]",,-0.2153768688440323,0.5918139219284058,10.586976051330566,"[0.0004, 0.0, 0.0, 0.0, 0.0004, 0.0, 0.0, 0.0, 0.0004]"
1479513000231377331,,91969,,1479513000,230937004,"""/imu""",,0.0005599516241604608,0.02167308449302369,0.9696138437457218,-0.2436781482477288,"[0.017453292519943295, 0.0, 0.0, 0.0, 0.017453292519943295, 0.0, 0.0, 0.0, 0.15707963267948966]",,0.0,0.0,0.0,"[-1.0, -1.0, -1.0, -1.0, -1.0, -1.0, -1.0, -1.0, -1.0]",,-0.0742962658405304,0.6594056487083435,10.358509063720703,"[0.0004, 0.0, 0.0, 0.0, 0.0004, 0.0, 0.0, 0.0, 0.0004]"
1479513000232053278,,91970,,1479513000,231719017,"""/imu""",,0.0005527960235037196,0.021652193964146683,0.9696151961410892,-0.2436746732752904,"[0.017453292519943295, 0.0, 0.0, 0.0, 0.017453292519943295, 0.0, 0.0, 0.0, 0.15707963267948966]",,0.0,0.0,0.0,"[-1.0, -1.0, -1.0, -1.0, -1.0, -1.0, -1.0, -1.0, -1.0]",,0.06243671476840973,0.6374279260635376,10.344722747802734,"[0.0004, 0.0, 0.0, 0.0, 0.0004, 0.0, 0.0, 0.0, 0.0004]"
1479513000236166971,,91971,,1479513000,235879898,"""/imu""",,0.0005394311345902615,0.021635563353327628,0.9696184849128618,-0.24366321207265634,"[0.017453292519943295, 0.0, 0.0, 0.0, 0.017453292519943295, 0.0, 0.0, 0.0, 0.15707963267948966]",,0.0,0.0,0.0,"[-1.0, -1.0, -1.0, -1.0, -1.0, -1.0, -1.0, -1.0, -1.0]",,0.00596067076548934,0.6937555074691772,10.312119483947754,"[0.0004, 0.0, 0.0, 0.0, 0.0004, 0.0, 0.0, 0.0, 0.0004]"
1479513000236717749,,91972,,1479513000,236469984,"""/imu""",,0.0005259708304726534,0.021607745285425497,0.9696189997429475,-0.24366349763451106,"[0.017453292519943295, 0.0, 0.0, 0.0, 0.017453292519943295, 0.0, 0.0, 0.0, 0.15707963267948966]",,0.0,0.0,0.0,"[-1.0, -1.0, -1.0, -1.0, -1.0, -1.0, -1.0, -1.0, -1.0]",,-0.04057642072439194,0.7582740783691406,10.126749038696289,"[0.0004, 0.0, 0.0, 0.0, 0.0004, 0.0, 0.0, 0.0, 0.0004]"
1479513000241257129,,91973,,1479513000,240935087,"""/imu""",,0.0005177303622754879,0.021595166328615887,0.9696204750754096,-0.24365850110822906,"[0.017453292519943295, 0.0, 0.0, 0.0, 0.017453292519943295, 0.0, 0.0, 0.0, 0.15707963267948966]",,0.0,0.0,0.0,"[-1.0, -1.0, -1.0, -1.0, -1.0, -1.0, -1.0, -1.0, -1.0]",,-0.1477535516023636,0.8838286399841309,10.214948654174805,"[0.0004, 0.0, 0.0, 0.0, 0.0004, 0.0, 0.0, 0.0, 0.0004]"
1479513000242202639,,91974,,1479513000,241585969,"""/imu""",,0.0005099110092005253,0.021588843040676278,0.9696230338498257,-0.2436487602561288,"[0.017453292519943295, 0.0, 0.0, 0.0, 0.017453292519943295, 0.0, 0.0, 0.0, 0.15707963267948966]",,0.0,0.0,0.0,"[-1.0, -1.0, -1.0, -1.0, -1.0, -1.0, -1.0, -1.0, -1.0]",,-0.10193218290805817,0.9590197205543518,10.192861557006836,"[0.0004, 0.0, 0.0, 0.0, 0.0004, 0.0, 0.0, 0.0, 0.0004]"
1479513000246445204,,91975,,1479513000,245981931,"""/imu""",,0.0004905440273493312,0.021596168195119968,0.9696238790891402,-0.2436446597637844,"[0.017453292519943295, 0.0, 0.0, 0.0, 0.017453292519943295, 0.0, 0.0, 0.0, 0.15707963267948966]",,0.0,0.0,0.0,"[-1.0, -1.0, -1.0, -1.0, -1.0, -1.0, -1.0, -1.0, -1.0]",,-0.29150378704071045,0.881168782711029,10.28210163116455,"[0.0004, 0.0, 0.0, 0.0, 0.0004, 0.0, 0.0, 0.0, 0.0004]"
1479513000247147262,,91976,,1479513000,246861934,"""/imu""",,0.0004737135221751379,0.02160642917922646,0.9696232336337305,-0.24364642022338232,"[0.017453292519943295, 0.0, 0.0, 0.0, 0.017453292519943295, 0.0, 0.0, 0.0, 0.15707963267948966]",,0.0,0.0,0.0,"[-1.0, -1.0, -1.0, -1.0, -1.0, -1.0, -1.0, -1.0, -1.0]",,-0.3403264582157135,0.833564817905426,10.249415397644043,"[0.0004, 0.0, 0.0, 0.0, 0.0004, 0.0, 0.0, 0.0, 0.0004]"
1479513000251354411,,91977,,1479513000,250982999,"""/imu""",,0.0004614822724327057,0.021623056615045703,0.9696227495418906,-0.2436469875377513,"[0.017453292519943295, 0.0, 0.0, 0.0, 0.017453292519943295, 0.0, 0.0, 0.0, 0.15707963267948966]",,0.0,0.0,0.0,"[-1.0, -1.0, -1.0, -1.0, -1.0, -1.0, -1.0, -1.0, -1.0]",,-0.3275531232357025,0.7118138670921326,10.32696533203125,"[0.0004, 0.0, 0.0, 0.0, 0.0004, 0.0, 0.0, 0.0, 0.0004]"
1479513000251939414,,91978,,1479513000,251672983,"""/imu""",,0.0004461628702589538,0.021633232503088413,0.9696235947814533,-0.24364273336583425,"[0.017453292519943295, 0.0, 0.0, 0.0, 0.017453292519943295, 0.0, 0.0, 0.0, 0.15707963267948966]",,0.0,0.0,0.0,"[-1.0, -1.0, -1.0, -1.0, -1.0, -1.0, -1.0, -1.0, -1.0]",,-0.26469752192497253,0.7118635177612305,10.421693801879883,"[0.0004, 0.0, 0.0, 0.0, 0.0004, 0.0, 0.0, 0.0, 0.0004]"
1479513000256195115,,91979,,1479513000,255887031,"""/imu""",,0.0004217522819631675,0.021623375094560415,0.9696246628558465,-0.24363942212736853,"[0.017453292519943295, 0.0, 0.0, 0.0, 0.017453292519943295, 0.0, 0.0, 0.0, 0.15707963267948966]",,0.0,0.0,0.0,"[-1.0, -1.0, -1.0, -1.0, -1.0, -1.0, -1.0, -1.0, -1.0]",,-0.1777709275484085,0.6857138276100159,10.289689064025879,"[0.0004, 0.0, 0.0, 0.0, 0.0004, 0.0, 0.0, 0.0, 0.0004]"
1479513000256738145,,91980,,1479513000,256469964,"""/imu""",,0.00039365502991345385,0.02160062154315283,0.9696229954298394,-0.2436479093026668,"[0.017453292519943295, 0.0, 0.0, 0.0, 0.017453292519943295, 0.0, 0.0, 0.0, 0.15707963267948966]",,0.0,0.0,0.0,"[-1.0, -1.0, -1.0, -1.0, -1.0, -1.0, -1.0, -1.0, -1.0]",,-0.2514350116252899,0.48823413252830505,10.135114669799805,"[0.0004, 0.0, 0.0, 0.0, 0.0004, 0.0, 0.0, 0.0, 0.0004]"
1479513000261234242,,91981,,1479513000,260904073,"""/imu""",,0.0003743842259974448,0.021566385185106816,0.9696212818969004,-0.24365831372810728,"[0.017453292519943295, 0.0, 0.0, 0.0, 0.017453292519943295, 0.0, 0.0, 0.0, 0.15707963267948966]",,0.0,0.0,0.0,"[-1.0, -1.0, -1.0, -1.0, -1.0, -1.0, -1.0, -1.0, -1.0]",,-0.20933249592781067,0.3110877275466919,9.950754165649414,"[0.0004, 0.0, 0.0, 0.0, 0.0004, 0.0, 0.0, 0.0, 0.0004]"
1479513000261918028,,91982,,1479513000,261522054,"""/imu""",,0.00035022508193805884,0.02151828469595337,0.9696216507293582,-0.24366120243853853,"[0.017453292519943295, 0.0, 0.0, 0.0, 0.017453292519943295, 0.0, 0.0, 0.0, 0.15707963267948966]",,0.0,0.0,0.0,"[-1.0, -1.0, -1.0, -1.0, -1.0, -1.0, -1.0, -1.0, -1.0]",,-0.05412416532635689,0.30563533306121826,9.635746955871582,"[0.0004, 0.0, 0.0, 0.0, 0.0004, 0.0, 0.0, 0.0, 0.0004]"
1479513000266316893,,91983,,1479513000,265961885,"""/imu""",,0.0003181947052876239,0.021465774939811885,0.9696203982352325,-0.24367086095051663,"[0.017453292519943295, 0.0, 0.0, 0.0, 0.017453292519943295, 0.0, 0.0, 0.0, 0.15707963267948966]",,0.0,0.0,0.0,"[-1.0, -1.0, -1.0, -1.0, -1.0, -1.0, -1.0, -1.0, -1.0]",,-0.119900643825531,0.10765483975410461,9.190204620361328,"[0.0004, 0.0, 0.0, 0.0, 0.0004, 0.0, 0.0, 0.0, 0.0004]"
1479513000266884663,,91984,,1479513000,266583919,"""/imu""",,0.00030963594594572247,0.021416335061579302,0.9696165254824245,-0.24369059864508524,"[0.017453292519943295, 0.0, 0.0, 0.0, 0.017453292519943295, 0.0, 0.0, 0.0, 0.15707963267948966]",,0.0,0.0,0.0,"[-1.0, -1.0, -1.0, -1.0, -1.0, -1.0, -1.0, -1.0, -1.0]",,-0.22523023188114166,-0.2003348469734192,8.88375186920166,"[0.0004, 0.0, 0.0, 0.0, 0.0004, 0.0, 0.0, 0.0, 0.0004]"
1479513000271349160,,91985,,1479513000,270989894,"""/imu""",,0.0003028644716394551,0.021397680962674005,0.9696162258044793,-0.24369334801197365,"[0.017453292519943295, 0.0, 0.0, 0.0, 0.017453292519943295, 0.0, 0.0, 0.0, 0.15707963267948966]",,0.0,0.0,0.0,"[-1.0, -1.0, -1.0, -1.0, -1.0, -1.0, -1.0, -1.0, -1.0]",,0.013865026645362377,-0.16150689125061035,8.950942993164062,"[0.0004, 0.0, 0.0, 0.0, 0.0004, 0.0, 0.0, 0.0, 0.0004]"
1479513000271799289,,91986,,1479513000,271548032,"""/imu""",,0.0002991775831580284,0.02139247779305613,0.9696146198364756,-0.24370029846244154,"[0.017453292519943295, 0.0, 0.0, 0.0, 0.017453292519943295, 0.0, 0.0, 0.0, 0.15707963267948966]",,0.0,0.0,0.0,"[-1.0, -1.0, -1.0, -1.0, -1.0, -1.0, -1.0, -1.0, -1.0]",,-0.2848568856716156,-0.2691960036754608,8.366695404052734,"[0.0004, 0.0, 0.0, 0.0, 0.0004, 0.0, 0.0, 0.0, 0.0004]"
1479513000276284570,,91987,,1479513000,275877952,"""/imu""",,0.0003135086371776073,0.021411272728885787,0.9696122838782677,-0.243707862723968,"[0.017453292519943295, 0.0, 0.0, 0.0, 0.017453292519943295, 0.0, 0.0, 0.0, 0.15707963267948966]",,0.0,0.0,0.0,"[-1.0, -1.0, -1.0, -1.0, -1.0, -1.0, -1.0, -1.0, -1.0]",,-0.2949022650718689,-0.01309238187968731,8.291752815246582,"[0.0004, 0.0, 0.0, 0.0, 0.0004, 0.0, 0.0, 0.0, 0.0004]"
1479513000276840654,,91988,,1479513000,276571035,"""/imu""",,0.0003402688931038185,0.02143597927239984,0.9696096636026599,-0.2437161746873747,"[0.017453292519943295, 0.0, 0.0, 0.0, 0.017453292519943295, 0.0, 0.0, 0.0, 0.15707963267948966]",,0.0,0.0,0.0,"[-1.0, -1.0, -1.0, -1.0, -1.0, -1.0, -1.0, -1.0, -1.0]",,-0.21158075332641602,0.2414826601743698,8.579708099365234,"[0.0004, 0.0, 0.0, 0.0, 0.0004, 0.0, 0.0, 0.0, 0.0004]"
1479513000281328968,,91989,,1479513000,280951023,"""/imu""",,0.00031373100614015385,0.021472973661823307,0.9696063133279313,-0.24372619164914588,"[0.017453292519943295, 0.0, 0.0, 0.0, 0.017453292519943295, 0.0, 0.0, 0.0, 0.15707963267948966]",,0.0,0.0,0.0,"[-1.0, -1.0, -1.0, -1.0, -1.0, -1.0, -1.0, -1.0, -1.0]",,0.00680946372449398,0.2841963469982147,8.438398361206055,"[0.0004, 0.0, 0.0, 0.0, 0.0004, 0.0, 0.0, 0.0, 0.0004]"
1479513000282018824,,91990,,1479513000,281642913,"""/imu""",,0.0002854228421479757,0.021505381748611347,0.9696106317991638,-0.24370617252548793,"[0.017453292519943295, 0.0, 0.0, 0.0, 0.017453292519943295, 0.0, 0.0, 0.0, 0.15707963267948966]",,0.0,0.0,0.0,"[-1.0, -1.0, -1.0, -1.0, -1.0, -1.0, -1.0, -1.0, -1.0]",,-0.28172481060028076,0.5396207571029663,8.625378608703613,"[0.0004, 0.0, 0.0, 0.0, 0.0004, 0.0, 0.0, 0.0, 0.0004]"
1479513000286257291,,91991,,1479513000,285959005,"""/imu""",,0.0002843522867915323,0.02153458434395474,0.9696141280562679,-0.24368972584297272,"[0.017453292519943295, 0.0, 0.0, 0.0, 0.017453292519943295, 0.0, 0.0, 0.0, 0.15707963267948966]",,0.0,0.0,0.0,"[-1.0, -1.0, -1.0, -1.0, -1.0, -1.0, -1.0, -1.0, -1.0]",,-0.036458324640989304,0.6881201863288879,8.771421432495117,"[0.0004, 0.0, 0.0, 0.0, 0.0004, 0.0, 0.0, 0.0, 0.0004]"
1479513000286784484,,91992,,1479513000,286539077,"""/imu""",,0.00027938122617121884,0.02155123004175004,0.969613951322695,-0.24368915553528378,"[0.017453292519943295, 0.0, 0.0, 0.0, 0.017453292519943295, 0.0, 0.0, 0.0, 0.15707963267948966]",,0.0,0.0,0.0,"[-1.0, -1.0, -1.0, -1.0, -1.0, -1.0, -1.0, -1.0, -1.0]",,0.1302257627248764,0.8677611351013184,8.83787727355957,"[0.0004, 0.0, 0.0, 0.0, 0.0004, 0.0, 0.0, 0.0, 0.0004]"
1479513000291187854,,91993,,1479513000,290884971,"""/imu""",,0.0002757462605879355,0.02156733694561198,0.9696187384859233,-0.24366841959563673,"[0.017453292519943295, 0.0, 0.0, 0.0, 0.017453292519943295, 0.0, 0.0, 0.0, 0.15707963267948966]",,0.0,0.0,0.0,"[-1.0, -1.0, -1.0, -1.0, -1.0, -1.0, -1.0, -1.0, -1.0]",,0.2567155063152313,0.9897688627243042,9.063061714172363,"[0.0004, 0.0, 0.0, 0.0, 0.0004, 0.0, 0.0, 0.0, 0.0004]"
1479513000291638714,,91994,,1479513000,291414976,"""/imu""",,0.0002679433216401825,0.02157765396966316,0.9696249855831294,-0.2436425990433207,"[0.017453292519943295, 0.0, 0.0, 0.0, 0.017453292519943295, 0.0, 0.0, 0.0, 0.15707963267948966]",,0.0,0.0,0.0,"[-1.0, -1.0, -1.0, -1.0, -1.0, -1.0, -1.0, -1.0, -1.0]",,0.3052675724029541,0.9999293684959412,8.982222557067871,"[0.0004, 0.0, 0.0, 0.0, 0.0004, 0.0, 0.0, 0.0, 0.0004]"
1479513000296097223,,91995,,1479513000,295850992,"""/imu""",,0.00027310012086452403,0.021585320342014803,0.9696287968305375,-0.2436268881887957,"[0.017453292519943295, 0.0, 0.0, 0.0, 0.017453292519943295, 0.0, 0.0, 0.0, 0.15707963267948966]",,0.0,0.0,0.0,"[-1.0, -1.0, -1.0, -1.0, -1.0, -1.0, -1.0, -1.0, -1.0]",,0.12027761340141296,0.8608160614967346,9.227484703063965,"[0.0004, 0.0, 0.0, 0.0, 0.0004, 0.0, 0.0, 0.0, 0.0004]"
1479513000296630490,,91996,,1479513000,296381950,"""/imu""",,0.00028766806909486295,0.021591692920189073,0.9696283357933412,-0.2436280183101586,"[0.017453292519943295, 0.0, 0.0, 0.0, 0.017453292519943295, 0.0, 0.0, 0.0, 0.15707963267948966]",,0.0,0.0,0.0,"[-1.0, -1.0, -1.0, -1.0, -1.0, -1.0, -1.0, -1.0, -1.0]",,-0.009609300643205643,0.6357976198196411,9.240083694458008,"[0.0004, 0.0, 0.0, 0.0, 0.0004, 0.0, 0.0, 0.0, 0.0004]"
1479513000301212992,,91997,,1479513000,300885915,"""/imu""",,0.00030681735314323614,0.021595703934791526,0.9696225574418876,-0.24365064728910554,"[0.017453292519943295, 0.0, 0.0, 0.0, 0.017453292519943295, 0.0, 0.0, 0.0, 0.15707963267948966]",,0.0,0.0,0.0,"[-1.0, -1.0, -1.0, -1.0, -1.0, -1.0, -1.0, -1.0, -1.0]",,-0.21802353858947754,0.47076475620269775,9.279084205627441,"[0.0004, 0.0, 0.0, 0.0, 0.0004, 0.0, 0.0, 0.0, 0.0004]"
1479513000301772166,,91998,,1479513000,301490068,"""/imu""",,0.0003189139899924322,0.02160330406776925,0.9696193378401683,-0.24366264426868103,"[0.017453292519943295, 0.0, 0.0, 0.0, 0.017453292519943295, 0.0, 0.0, 0.0, 0.15707963267948966]",,0.0,0.0,0.0,"[-1.0, -1.0, -1.0, -1.0, -1.0, -1.0, -1.0, -1.0, -1.0]",,-0.4303686320781708,0.2348109632730484,9.369451522827148,"[0.0004, 0.0, 0.0, 0.0, 0.0004, 0.0, 0.0, 0.0, 0.0004]"
1479513000306308137,,91999,,1479513000,306020021,"""/imu""",,0.0003359199911033317,0.02161710596303918,0.9696185002809281,-0.24366479112149889,"[0.017453292519943295, 0.0, 0.0, 0.0, 0.017453292519943295, 0.0, 0.0, 0.0, 0.15707963267948966]",,0.0,0.0,0.0,"[-1.0, -1.0, -1.0, -1.0, -1.0, -1.0, -1.0, -1.0, -1.0]",,-0.6832505464553833,0.2736727297306061,9.397387504577637,"[0.0004, 0.0, 0.0, 0.0, 0.0004, 0.0, 0.0, 0.0, 0.0004]"
1479513000306874122,,92000,,1479513000,306600093,"""/imu""",,0.00035477541026917263,0.021614989327781206,0.9696152115092075,-0.24367811187159813,"[0.017453292519943295, 0.0, 0.0, 0.0, 0.017453292519943295, 0.0, 0.0, 0.0, 0.15707963267948966]",,0.0,0.0,0.0,"[-1.0, -1.0, -1.0, -1.0, -1.0, -1.0, -1.0, -1.0, -1.0]",,-0.6963989734649658,0.16208314895629883,9.523362159729004,"[0.0004, 0.0, 0.0, 0.0, 0.0004, 0.0, 0.0, 0.0, 0.0004]"
1479513000311370135,,92001,,1479513000,310925960,"""/imu""",,0.00036572548925877684,0.021607300072699783,0.9696157032888656,-0.2436767280953743,"[0.017453292519943295, 0.0, 0.0, 0.0, 0.017453292519943295, 0.0, 0.0, 0.0, 0.15707963267948966]",,0.0,0.0,0.0,"[-1.0, -1.0, -1.0, -1.0, -1.0, -1.0, -1.0, -1.0, -1.0]",,-0.727717399597168,0.15416671335697174,9.522241592407227,"[0.0004, 0.0, 0.0, 0.0, 0.0004, 0.0, 0.0, 0.0, 0.0004]"
1479513000311827032,,92002,,1479513000,311568975,"""/imu""",,0.0003746788580774663,0.021598483625009976,0.9696144507870574,-0.24368248318349275,"[0.017453292519943295, 0.0, 0.0, 0.0, 0.017453292519943295, 0.0, 0.0, 0.0, 0.15707963267948966]",,0.0,0.0,0.0,"[-1.0, -1.0, -1.0, -1.0, -1.0, -1.0, -1.0, -1.0, -1.0]",,-0.7175476551055908,0.020260365679860115,9.544410705566406,"[0.0004, 0.0, 0.0, 0.0, 0.0004, 0.0, 0.0, 0.0, 0.0004]"
1479513000316590356,,92003,,1479513000,315943956,"""/imu""",,0.00039927331525261976,0.02160645532741976,0.96961171525601,-0.24369268357569285,"[0.017453292519943295, 0.0, 0.0, 0.0, 0.017453292519943295, 0.0, 0.0, 0.0, 0.15707963267948966]",,0.0,0.0,0.0,"[-1.0, -1.0, -1.0, -1.0, -1.0, -1.0, -1.0, -1.0, -1.0]",,-0.426424115896225,-0.176095113158226,9.658761978149414,"[0.0004, 0.0, 0.0, 0.0, 0.0004, 0.0, 0.0, 0.0, 0.0004]"
1479513000317065630,,92004,,1479513000,316762924,"""/imu""",,0.0004369706876996569,0.021640726348321503,0.9696091333994027,-0.2437000022810133,"[0.017453292519943295, 0.0, 0.0, 0.0, 0.017453292519943295, 0.0, 0.0, 0.0, 0.15707963267948966]",,0.0,0.0,0.0,"[-1.0, -1.0, -1.0, -1.0, -1.0, -1.0, -1.0, -1.0, -1.0]",,-0.20937012135982513,-0.1763264536857605,9.81114387512207,"[0.0004, 0.0, 0.0, 0.0, 0.0004, 0.0, 0.0, 0.0, 0.0004]"
1479513000321294127,,92005,,1479513000,320949077,"""/imu""",,0.0005028188034527582,0.02177524418573365,0.9696422436523303,-0.24355584567746036,"[0.017453292519943295, 0.0, 0.0, 0.0, 0.017453292519943295, 0.0, 0.0, 0.0, 0.15707963267948966]",,0.0,0.0,0.0,"[-1.0, -1.0, -1.0, -1.0, -1.0, -1.0, -1.0, -1.0, -1.0]",,-0.0025871305260807276,-0.15765222907066345,10.314125061035156,"[0.0004, 0.0, 0.0, 0.0, 0.0004, 0.0, 0.0, 0.0, 0.0004]"
1479513000322369588,,92006,,1479513000,321561098,"""/imu""",,0.0005571447248921258,0.02186402417275879,0.969641098758766,-0.24355233742961585,"[0.017453292519943295, 0.0, 0.0, 0.0, 0.017453292519943295, 0.0, 0.0, 0.0, 0.15707963267948966]",,0.0,0.0,0.0,"[-1.0, -1.0, -1.0, -1.0, -1.0, -1.0, -1.0, -1.0, -1.0]",,0.11100158840417862,-0.11968807131052017,10.815750122070312,"[0.0004, 0.0, 0.0, 0.0, 0.0004, 0.0, 0.0, 0.0, 0.0004]"
1479513000326206999,,92007,,1479513000,325932025,"""/imu""",,0.0006097042311883013,0.021968085633256914,0.9696372414564057,-0.24355810104621353,"[0.017453292519943295, 0.0, 0.0, 0.0, 0.017453292519943295, 0.0, 0.0, 0.0, 0.15707963267948966]",,0.0,0.0,0.0,"[-1.0, -1.0, -1.0, -1.0, -1.0, -1.0, -1.0, -1.0, -1.0]",,0.06840789318084717,-0.05006749927997589,11.511575698852539,"[0.0004, 0.0, 0.0, 0.0, 0.0004, 0.0, 0.0, 0.0, 0.0004]"
1479513000326669305,,92008,,1479513000,326415061,"""/imu""",,0.0006462862051438158,0.022074120994658122,0.9696365806421112,-0.24355118248644633,"[0.017453292519943295, 0.0, 0.0, 0.0, 0.017453292519943295, 0.0, 0.0, 0.0, 0.15707963267948966]",,0.0,0.0,0.0,"[-1.0, -1.0, -1.0, -1.0, -1.0, -1.0, -1.0, -1.0, -1.0]",,-0.015507319942116737,0.1321127861738205,11.982793807983398,"[0.0004, 0.0, 0.0, 0.0, 0.0004, 0.0, 0.0, 0.0, 0.0004]"
1479513000331169699,,92009,,1479513000,330883026,"""/imu""",,0.0006641912498603925,0.022157041279223095,0.969635673942695,-0.24354703040816217,"[0.017453292519943295, 0.0, 0.0, 0.0, 0.017453292519943295, 0.0, 0.0, 0.0, 0.15707963267948966]",,0.0,0.0,0.0,"[-1.0, -1.0, -1.0, -1.0, -1.0, -1.0, -1.0, -1.0, -1.0]",,-0.11778846383094788,0.2547813057899475,12.285791397094727,"[0.0004, 0.0, 0.0, 0.0, 0.0004, 0.0, 0.0, 0.0, 0.0004]"
1479513000331725923,,92010,,1479513000,331465959,"""/imu""",,0.0006590610901933637,0.022215103455323373,0.9696345520930915,-0.2435464669580201,"[0.017453292519943295, 0.0, 0.0, 0.0, 0.017453292519943295, 0.0, 0.0, 0.0, 0.15707963267948966]",,0.0,0.0,0.0,"[-1.0, -1.0, -1.0, -1.0, -1.0, -1.0, -1.0, -1.0, -1.0]",,-0.1442064493894577,0.3248828947544098,12.109782218933105,"[0.0004, 0.0, 0.0, 0.0, 0.0004, 0.0, 0.0, 0.0, 0.0004]"
1479513000336139972,,92011,,1479513000,335896015,"""/imu""",,0.0006326305476019165,0.022237538025148537,0.9696328155288167,-0.243551206132638,"[0.017453292519943295, 0.0, 0.0, 0.0, 0.017453292519943295, 0.0, 0.0, 0.0, 0.15707963267948966]",,0.0,0.0,0.0,"[-1.0, -1.0, -1.0, -1.0, -1.0, -1.0, -1.0, -1.0, -1.0]",,-0.26154470443725586,0.45738685131073,12.003278732299805,"[0.0004, 0.0, 0.0, 0.0, 0.0004, 0.0, 0.0, 0.0, 0.0004]"
1479513000336651480,,92012,,1479513000,336426973,"""/imu""",,0.000597699403588949,0.02222958866638557,0.9696336684435173,-0.24354870209270935,"[0.017453292519943295, 0.0, 0.0, 0.0, 0.017453292519943295, 0.0, 0.0, 0.0, 0.15707963267948966]",,0.0,0.0,0.0,"[-1.0, -1.0, -1.0, -1.0, -1.0, -1.0, -1.0, -1.0, -1.0]",,-0.18391534686088562,0.5399515628814697,11.498623847961426,"[0.0004, 0.0, 0.0, 0.0, 0.0004, 0.0, 0.0, 0.0, 0.0004]"
1479513000341283070,,92013,,1479513000,340943098,"""/imu""",,0.000551007543859811,0.022203507754048446,0.9696355048969475,-0.2435439685731156,"[0.017453292519943295, 0.0, 0.0, 0.0, 0.017453292519943295, 0.0, 0.0, 0.0, 0.15707963267948966]",,0.0,0.0,0.0,"[-1.0, -1.0, -1.0, -1.0, -1.0, -1.0, -1.0, -1.0, -1.0]",,-0.0925978496670723,0.635296642780304,10.821990013122559,"[0.0004, 0.0, 0.0, 0.0, 0.0004, 0.0, 0.0, 0.0, 0.0004]"
1479513000341845650,,92014,,1479513000,341588973,"""/imu""",,0.0005118924721183411,0.02216492137527505,0.9696376794377247,-0.2435389657425327,"[0.017453292519943295, 0.0, 0.0, 0.0, 0.017453292519943295, 0.0, 0.0, 0.0, 0.15707963267948966]",,0.0,0.0,0.0,"[-1.0, -1.0, -1.0, -1.0, -1.0, -1.0, -1.0, -1.0, -1.0]",,0.05337255448102951,0.49803730845451355,10.228837966918945,"[0.0004, 0.0, 0.0, 0.0, 0.0004, 0.0, 0.0, 0.0, 0.0004]"
1479513000346401682,,92015,,1479513000,346004009,"""/imu""",,0.0004824866723323242,0.022130498601021797,0.969641675047642,-0.2435261597969725,"[0.017453292519943295, 0.0, 0.0, 0.0, 0.017453292519943295, 0.0, 0.0, 0.0, 0.15707963267948966]",,0.0,0.0,0.0,"[-1.0, -1.0, -1.0, -1.0, -1.0, -1.0, -1.0, -1.0, -1.0]",,0.15251803398132324,0.5262017250061035,9.865159034729004,"[0.0004, 0.0, 0.0, 0.0, 0.0004, 0.0, 0.0, 0.0, 0.0004]"
